[
  {
    "name": "Էջմիածնի մայր տաճար",
    "lat": 40.1667,
    "lon": 44.2946,
    "isActive": true,
    "address": "Էջմիածին, Արմավիրի մարզ, Հայաստան",
    "description": "Էջմիածնի մայր տաճարը հանդիսանում է Հայ Առաքելական Եկեղեցու հոգևոր կենտրոնը, հիմնադրվել է Գրիգոր Լուսավորչի կողմից IV դարի սկզբին։ Այն աշխարհի ամենահին քրիստոնեական եկեղեցիներից մեկն է և ընդգրկված է ՅՈՒՆԵՍԿՕ-ի Համաշխարհային ժառանգության ցանկում։",
    "photoName": "echmiadzin"
  },
  {
    "name": "Սուրբ Զորավոր Աստվածածին",
    "lat": 40.1836,
    "lon": 44.5094,
    "isActive": true,
    "address": "Երևան, Հայաստան",
    "description": "Սուրբ Զորավոր Աստվածածինը հիմնադրվել է IX դարում, ավերվել է 1679 թվականի երկրաշարժից և վերականգնվել 1693–1694 թվականներին։ Այն Երևանի ամենահին պահպանված եկեղեցիներից մեկն է և հոգևոր վերածննդի խորհրդանիշ։",
    "photoName": "zoravor_astvatsatsin"
  },
  {
    "name": "Գեղարդի վանք",
    "lat": 40.1419,
    "lon": 44.8267,
    "isActive": true,
    "address": "Կոտայքի մարզ, Հայաստան",
    "description": "Գեղարդի վանքը հիմնադրվել է IV դարում և մասամբ քանդակված է ժայռի մեջ։ Այն հայտնի է նրանով, որ այստեղ պահվել է Քրիստոսի խոցած սուրը։ Նույնպես ընդգրկված է ՅՈՒՆԵՍԿՕ-ի Համաշխարհային ժառանգության ցանկում։",
    "photoName": "geghard"
  },
  {
    "name": "Տաթևի վանք",
    "lat": 39.3833,
    "lon": 46.2500,
    "isActive": true,
    "address": "Տաթև, Սյունիքի մարզ, Հայաստան",
    "description": "Տաթևի վանքը հիմնադրվել է IX դարում և ծառայել է որպես կարևոր կրթական և հոգևոր կենտրոն, որտեղ գործում էր միջնադարյան Հայաստանի ամենահին համալսարաններից մեկը։",
    "photoName": "tatev"
  },
  {
    "name": "Խոր Վիրապի վանք",
    "lat": 39.8783,
    "lon": 44.5761,
    "isActive": true,
    "address": "Արարատի մարզ, Հայաստան",
    "description": "Խոր Վիրապը Հայաստանի ամենաշատ այցելվող ուխտավայրերից մեկն է։ Այստեղ Գրիգոր Լուսավորչին 13 տարի բանտարկված է եղել, նախքան 301 թվականին Տրդատ Գ թագավորին քրիստոնեություն ընդունեցնելը։",
    "photoName": "khor_virap"
  },
  {
    "name": "Նորավանքի վանք",
    "lat": 39.6847,
    "lon": 45.2322,
    "isActive": true,
    "address": "Վայոց Ձորի մարզ, Հայաստան",
    "description": "Նորավանքը, որը հիմնադրվել է XII դարում, հայտնի է իր գեղեցիկ դիրքով նեղ կիրճում և յուրահատուկ երկհարկանի Սուրբ Աստվածածին եկեղեցով, որը կառուցել է ճարտարապետ Մոմիկը։",
    "photoName": "noravank"
  },
  {
    "name": "Սանահինի վանք",
    "lat": 41.0875,
    "lon": 44.6519,
    "isActive": true,
    "address": "Ալավերդի, Լոռու մարզ, Հայաստան",
    "description": "Սանահինի վանքը հիմնադրվել է X դարում և եղել է գիտության ու մշակույթի կարևոր կենտրոն։ Այսօր այն մասամբ պահպանված է և ընդգրկված է ՅՈՒՆԵՍԿՕ-ի Համաշխարհային ժառանգության ցանկում՝ Ախպատի վանքի հետ միասին։",
    "photoName": "sanahin"
  },
  {
    "name": "Ախպատի վանք",
    "lat": 41.0950,
    "lon": 44.7100,
    "isActive": true,
    "address": "Լոռու մարզ, Հայաստան",
    "description": "Ախպատի վանքը, հիմնադրված X դարում, հանդիսանում է միջնադարյան հայկական ճարտարապետության բացառիկ օրինակներից մեկը։ Այն եղել է կարևոր կրոնական, մշակութային և կրթական կենտրոն։",
    "photoName": "haghpat"
  },
  {
    "name": "Ամբերդի եկեղեցի (Սուրբ Աստվածածին)",
    "lat": 40.3783,
    "lon": 44.2267,
    "isActive": true,
    "address": "Բյուրականի մոտ, Արագածոտնի մարզ, Հայաստան",
    "description": "Ամբերդի ամրոցի Սուրբ Աստվածածին եկեղեցին կառուցվել է XI դարում Պահլավունիների կողմից։ Այն մասամբ վնասվել է, բայց լավ պահպանվել է և շարունակում է լինել կարևոր պատմական հուշարձան։",
    "photoName": "amberd_astvatsatsin"
  },
  {
    "name": "Զվարթնոցի տաճար",
    "lat": 40.1478,
    "lon": 44.3958,
    "isActive": false,
    "address": "Էջմիածին, Արմավիրի մարզ, Հայաստան",
    "description": "Զվարթնոցի տաճարը, որը կառուցվել է VII դարում կաթողիկոս Ներսես Գ-ի կողմից, եղել է վաղմիջնադարյան Հայաստանի ամենամեծ տաճարներից մեկը։ Այն ավերվել է X դարի երկրաշարժից, իսկ նրա ավերակները ընդգրկված են ՅՈՒՆԵՍԿՕ-ի Համաշխարհային ժառանգության ցանկում։",
    "photoName": "zvartnots"
  }
]
