[
  {
    "name": "Էջմիածնի մայր տաճար",
    "lat": 40.1667,
    "lon": 44.2946,
    "isActive": true,
    "address": "Էջմիածին, Արմավիրի մարզ, Հայաստան",
    "description": "Էջմիածնի մայր տաճարը հանդիսանում է Հայ Առաքելական Եկեղեցու հոգևոր կենտրոնը, հիմնադրվել է Գրիգոր Լուսավորչի կողմից IV դարի սկզբին։ Այն աշխարհի ամենահին քրիստոնեական եկեղեցիներից մեկն է և ընդգրկված է ՅՈՒՆԵՍԿՕ-ի Համաշխարհային ժառանգության ցանկում։",
    "photoName": "echmiadzin"
  },
  {
    "name": "Սուրբ Զորավոր Աստվածածին",
    "lat": 40.1836,
    "lon": 44.5094,
    "isActive": true,
    "address": "Երևան, Հայաստան",
    "description": "Սուրբ Զորավոր Աստվածածինը հիմնադրվել է IX դարում, ավերվել է 1679 թվականի երկրաշարժից և վերականգնվել 1693–1694 թվականներին։ Այն Երևանի ամենահին պահպանված եկեղեցիներից մեկն է և հոգևոր վերածննդի խորհրդանիշ։",
    "photoName": "zoravor_astvatsatsin"
  },
  {
    "name": "Գեղարդի վանք",
    "lat": 40.1419,
    "lon": 44.8267,
    "isActive": true,
    "address": "Կոտայքի մարզ, Հայաստան",
    "description": "Գեղարդի վանքը հիմնադրվել է IV դարում և մասամբ քանդակված է ժայռի մեջ։ Այն հայտնի է նրանով, որ այստեղ պահվել է Քրիստոսի խոցած սուրը։ Նույնպես ընդգրկված է ՅՈՒՆԵՍԿՕ-ի Համաշխարհային ժառանգության ցանկում։",
    "photoName": "geghard"
  },
  {
    "name": "Տաթևի վանք",
    "lat": 39.3833,
    "lon": 46.2500,
    "isActive": true,
    "address": "Տաթև, Սյունիքի մարզ, Հայաստան",
    "description": "Տաթևի վանքը հիմնադրվել է IX դարում և ծառայել է որպես կարևոր կրթական և հոգևոր կենտրոն, որտեղ գործում էր միջնադարյան Հայաստանի ամենահին համալսարաններից մեկը։",
    "photoName": "tatev"
  },
  {
    "name": "Խոր Վիրապի վանք",
    "lat": 39.8783,
    "lon": 44.5761,
    "isActive": true,
    "address": "Արարատի մարզ, Հայաստան",
    "description": "Խոր Վիրապը Հայաստանի ամենաշատ այցելվող ուխտավայրերից մեկն է։ Այստեղ Գրիգոր Լուսավորչին 13 տարի բանտարկված է եղել, նախքան 301 թվականին Տրդատ Գ թագավորին քրիստոնեություն ընդունեցնելը։",
    "photoName": "khor_virap"
  },
  {
    "name": "Նորավանքի վանք",
    "lat": 39.6847,
    "lon": 45.2322,
    "isActive": true,
    "address": "Վայոց Ձորի մարզ, Հայաստան",
    "description": "Նորավանքը, որը հիմնադրվել է XII դարում, հայտնի է իր գեղեցիկ դիրքով նեղ կիրճում և յուրահատուկ երկհարկանի Սուրբ Աստվածածին եկեղեցով, որը կառուցել է ճարտարապետ Մոմիկը։",
    "photoName": "noravank"
  },
  {
    "name": "Սանահինի վանք",
    "lat": 41.0875,
    "lon": 44.6519,
    "isActive": true,
    "address": "Ալավերդի, Լոռու մարզ, Հայաստան",
    "description": "Սանահինի վանքը հիմնադրվել է X դարում և եղել է գիտության ու մշակույթի կարևոր կենտրոն։ Այսօր այն մասամբ պահպանված է և ընդգրկված է ՅՈՒՆԵՍԿՕ-ի Համաշխարհային ժառանգության ցանկում՝ Ախպատի վանքի հետ միասին։",
    "photoName": "sanahin"
  },
  {
    "name": "Ախպատի վանք",
    "lat": 41.0950,
    "lon": 44.7100,
    "isActive": true,
    "address": "Լոռու մարզ, Հայաստան",
    "description": "Ախպատի վանքը, հիմնադրված X դարում, հանդիսանում է միջնադարյան հայկական ճարտարապետության բացառիկ օրինակներից մեկը։ Այն եղել է կարևոր կրոնական, մշակութային և կրթական կենտրոն։",
    "photoName": "haghpat"
  },
  {
    "name": "Ամբերդի եկեղեցի (Սուրբ Աստվածածին)",
    "lat": 40.3783,
    "lon": 44.2267,
    "isActive": true,
    "address": "Բյուրականի մոտ, Արագածոտնի մարզ, Հայաստան",
    "description": "Ամբերդի ամրոցի Սուրբ Աստվածածին եկեղեցին կառուցվել է XI դարում Պահլավունիների կողմից։ Այն մասամբ վնասվել է, բայց լավ պահպանվել է և շարունակում է լինել կարևոր պատմական հուշարձան։",
    "photoName": "amberd_astvatsatsin"
  },
  {
    "name": "Զվարթնոցի տաճար",
    "lat": 40.1478,
    "lon": 44.3958,
    "isActive": false,
    "address": "Էջմիածին, Արմավիրի մարզ, Հայաստան",
    "description": "Զվարթնոցի տաճարը, որը կառուցվել է VII դարում կաթողիկոս Ներսես Գ-ի կողմից, եղել է վաղմիջնադարյան Հայաստանի ամենամեծ տաճարներից մեկը։ Այն ավերվել է X դարի երկրաշարժից, իսկ նրա ավերակները ընդգրկված են ՅՈՒՆԵՍԿՕ-ի Համաշխարհային ժառանգության ցանկում։",
    "photoName": "zvartnots"
  },
  {
    "name": "Սուրբ Պայծառակերպության Մայր Տաճար (Մոսկվա)",
    "lat": 55.7882,
    "lon": 37.6213,
    "isActive": true,
    "address": "Մոսկվա, Ռուսաստան",
    "description": "Սուրբ Պայծառակերպության մայր տաճարը, որն օծվեց 2013 թվականին, հանդիսանում է Հայ Առաքելական Եկեղեցու գլխավոր տաճարը Ռուսաստանում և համայնքի հոգևոր կենտրոնը.",
    "photoName": "moscow_surharutyun"
  },
  {
    "name": "Սուրբ Վարդանի մայր տաճար (Նյու Յորք)",
    "lat": 40.7481,
    "lon": -73.9769,
    "isActive": true,
    "address": "Նյու Յորք, ԱՄՆ",
    "description": "Սուրբ Վարդանի մայր տաճարը Նյու Յորքի գլխավոր հայկական եկեղեցին է, օծվել է 1968 թվականին։ Այն հանդիսանում է Հայ Առաքելական Եկեղեցու կենտրոնը ԱՄՆ-ում։",
    "photoName": "ny_stvartan"
  },
  {
    "name": "Սուրբ Գրիգոր Լուսավորչի եկեղեցի (Գլենդեյլ)",
    "lat": 34.1526,
    "lon": -118.2468,
    "isActive": true,
    "address": "Գլենդեյլ, Կալիֆորնիա, ԱՄՆ",
    "description": "Գլենդեյլի Սուրբ Գրիգոր Լուսավորչի եկեղեցին Կալիֆորնիայի ամենամեծ հայկական եկեղեցիներից մեկն է և տեղի համայնքի հոգևոր կենտրոնը։",
    "photoName": "glendale_stgregory"
  },
  {
      "name": "Սուրբ Կատարինեի Եկեղեցի",
      "lat": 59.9343,
      "lon": 30.3351,
      "isActive": true,
      "address": "Սանկտ Պետերբուրգ, Ռուսաստան",
      "description": "Սուրբ Կատարինեի հայկական եկեղեցին կառուցվել է ճարտարապետ Յուրի Ֆելտենի նախագծով 1771–1776 թթ․ և օծվել է 1780 թ․ փետրվարի 18-ին արքեպիսկոպոս Հովսեփ Արղությանը կողմից՝ իշխան Պոտյոմկինի ներկայությամբ։ Այն Ռուսաստանի ամենահին հայկական եկեղեցիներից է և երկար տարիներ եղել է համայնքի հոգևոր ու մշակութային կենտրոն։",
      "photoName": "spb_stcatherine"
    },
    {
      "name": "Սուրբ Հարություն Եկեղեցի",
      "lat": 47.2357,
      "lon": 39.7015,
      "isActive": true,
      "address": "Ростով-на-Дону, Ռուսաստան",
      "description": "Սուրբ Հարություն եկեղեցին, որը գտնվում է Ростով-на-Дону քաղաքում, օծվել է 2011 թ․ և կառուցվել հայկական ավանդական ճարտարապետական ոճով։",
      "photoName": "rostov_surbarutyun"
    },
    {
      "name": "Սուրբ Խաչ Եկեղեցի",
      "lat": 47.2221,
      "lon": 39.7208,
      "isActive": true,
      "address": "Նախիջևան-ոն-Դոն, Ростով-на-Дону, Ռուսաստան",
      "description": "Սուրբ Խաչ եկեղեցին կառուցվել է 1786–1792 թթ․։ Խորհրդային շրջանում փակվելուց հետո այն վերագործարկվել է 2000 թ․։",
      "photoName": "rostov_surkhach"
    },
    {
      "name": "Համբարձման Եկեղեցի",
      "lat": 47.2186,
      "lon": 39.6158,
      "isActive": true,
      "address": "Չալթըր գյուղ, Ростովի մարզ, Ռուսաստան",
      "description": "Համբարձման եկեղեցին կառուցվել է 1860 թ․։ 1944 թ․-ից այն կրկին գործող է և հանդիսանում է շրջանի հայերի հոգևոր կենտրոնը։",
      "photoName": "chaltyr_ascension"
    },
    {
      "name": "Սուրբ Ռիպսիմեի Եկեղեցի",
      "lat": 46.3497,
      "lon": 48.0408,
      "isActive": true,
      "address": "Աստրախան, Ռուսաստան",
      "description": "Սուրբ Ռիպսիմեի եկեղեցին հայկական առաքելական եկեղեցի է Աստրախանում, գործող տաճար և տեղական հայկական համայնքի հոգևոր կենտրոն։",
      "photoName": "astrakhan_ripsime"
    },
    {
      "name": "Սուրբ Գևորգ Եկեղեցի",
      "lat": 44.2269,
      "lon": 42.0468,
      "isActive": true,
      "address": "Չերկեսկ, Կարաչայ-Չերկեսիայի Հանրապետություն, Ռուսաստան",
      "description": "Սուրբ Գևորգ եկեղեցին հայկական առաքելական եկեղեցի է Չերկեսկ քաղաքում, գործող տաճար և քաղաքի հայկական համայնքի հոգևոր կենտրոն։",
      "photoName": "cherkessk_gevorg"
    },
    {
      "name": "Սուրբ Գևորգ Եկեղեցի",
      "lat": 48.708,
      "lon": 44.5133,
      "isActive": true,
      "address": "Վոլգոգրադ, Ռուսաստան",
      "description": "Սուրբ Գևորգ եկեղեցին գործող հայկական եկեղեցի է Վոլգոգրադում, միավորելով քաղաքի հայկական համայնքը։",
      "photoName": "volgograd_gevorg"
    },
    {
      "name": "Սուրբ Հովհաննես Եկեղեցի",
      "lat": 44.6098,
      "lon": 40.1007,
      "isActive": true,
      "address": "Մայկոպ, Ադիգեյի Հանրապետություն, Ռուսաստան",
      "description": "Սուրբ Հովհաննես եկեղեցին հայկական առաքելական եկեղեցի է Մայկոպում, հանդիսանալով համայնքի հոգևոր և մշակութային կենտրոն։",
      "photoName": "maykop_hovhannes"
    },
    {
      "name": "Սուրբ Կարապետ Եկեղեցի",
      "lat": 56.8389,
      "lon": 60.6057,
      "isActive": true,
      "address": "Եկատերինբուրգ, Ռուսաստան",
      "description": "Սուրբ Կարապետ եկեղեցին Եկատերինբուրգում կառուցվել է 20-րդ դարի վերջում և հանդիսանում է ուրալահայերի հավաքման կենտրոն։",
      "photoName": "yekaterinburg_karapet"
    },
    {
      "name": "Սուրբ Սարգս եկեղեցի",
      "lat": 43.4396,
      "lon": 39.9273,
      "isActive": true,
      "address": "Ադլեր, Սոչի, Ռուսաստան",
      "description": "Սուրբ Սարգս եկեղեցին Ադլերում կառուցվել է 1997–1998 թթ․։ Կառուցված է հայկական ավանդական ճարտարապետական ոճով և հանդիսանում է քաղաքի հայ համայնքի հոգևոր կենտրոն։",
      "photoName": "adler_sarkis"
    },
    {
      "name": "Սուրբ Մարիամ Աստվածածին եկեղեցի",
      "lat": 45.0448,
      "lon": 38.976,
      "isActive": true,
      "address": "Կրասնոդար, Տուրգենևի փ. 165, Ռուսաստան",
      "description": "Սուրբ Մարիամ Աստվածածին եկեղեցին հայկական առաքելական եկեղեցի է Կրասնոդարում։ Գործող տաճար, որը ծառայում է որպես հայերի հոգևոր և մշակութային կենտրոն Կուբանում։",
      "photoName": "krasnodar_astvatsatsin"
    },
    {
      "name": "Սուրբ Վարդան եկեղեցի",
      "lat": 43.9133,
      "lon": 42.7208,
      "isActive": true,
      "address": "Կիսլովոդսկ, Կուտուզովի փ. 107Բ, Ռուսաստան",
      "description": "Սուրբ Վարդան եկեղեցին Կիսլովոդսկում հայկական առաքելական եկեղեցի է, գործող տաճար, հիմնադրված XXI դարի սկզբին։",
      "photoName": "kislovodsk_vardan"
    },
    {
      "name": "Սուրբ Սարգս եկեղեցի",
      "lat": 44.0486,
      "lon": 43.0594,
      "isActive": true,
      "address": "Պյատիգորսկ, Ստավրոպոլի երկրամաս, Ռուսաստան",
      "description": "Սուրբ Սարգս եկեղեցին Պյատիգորսկում գործող հայկական եկեղեցի է, կառուցված համայնքի աջակցությամբ։",
      "photoName": "pyatigorsk_sarkis"
    },
    {
      "name": "Սուրբ Գևորգ եկեղեցի",
      "lat": 47.3561,
      "lon": 39.5842,
      "isActive": false,
      "address": "Սուլթան-Սալը գյուղ, Ռոստովի մարզ, Ռուսաստան",
      "description": "Սուրբ Գևորգ եկեղեցին Սուլթան-Սալը գյուղում հիմնադրվել է 1795 թ․ և վերակառուցվել 1867 թ․։ Այն Դոնի տարածաշրջանի ամենահին հայկական տաճարներից է։ Երկրորդ համաշխարհային պատերազմի ժամանակ շենքը վնասվել է և մասնակիորեն ավերվել։ Այսօր այն գտնվում է ավերակ վիճակում և պահանջում է վերականգնում, սակայն մնում է որպես հայկական ժառանգության կարևոր հուշարձան Ռուսաստանում։",
      "photoName": "sultan_saly_gevorg"
    },
    {
      "name": "Սուրբ Գրիգոր Լուսավորիչ եկեղեցի",
      "lat": 44.7244,
      "lon": 37.7675,
      "isActive": true,
      "address": "Նովոռոսիսկ, Краснодарի երկրամաս, Ռուսաստան",
      "description": "Սուրբ Գրիգոր Լուսավորիչ եկեղեցին Նովոռոսիսկում կառուցվել է 2001–2008 թթ․։ Ճարտարապետ՝ Լևոն Ավալյան։ Եկեղեցին երեսապատված է Հայաստանból բերված վարդագույն տուֆով։",
      "photoName": "novorossiysk_grigor"
    },
    {
      "name": "Սուրբ Գրիգոր Լուսավորիչ եկեղեցի",
      "lat": 56.129,
      "lon": 40.4066,
      "isActive": true,
      "address": "Վլադիմիր, Ռուսաստան",
      "description": "Սուրբ Գրիգոր Լուսավորիչ եկեղեցին Վլադիմիրում հայկական առաքելական եկեղեցի է, օծվել է 2017 թ․։ Կառուցվել է քաղաքի հայ համայնքի աջակցությամբ։",
      "photoName": "vladimir_grigor"
    },
      {
        "name": "Սուրբ Խաչ եկեղեցի",
        "lat": 53.1959,
        "lon": 50.1008,
        "isActive": true,
        "address": "Սամարա, Ռուսաստան",
        "description": "Սուրբ Խաչ եկեղեցին Սամարայում կառուցվել է 1998–2003 թթ․, освящվել է 2003 թվականին։ Գործող տաճար և հայ համայնքի հոգևոր կենտրոն Վոլգայում։",
        "photoName": "samara_surkhach"
      },
      {
        "name": "Սուրբ Գրիգորիս եկեղեցի",
        "lat": 41.5057,
        "lon": 48.4004,
        "isActive": true,
        "address": "Նյուգդի գյուղ, Դաղստան, Ռուսաստան",
        "description": "Սուրբ Գրիգորիս եկեղեցին Նյուգդիում կառուցվել է 1916 թ․։ Այն տարածաշրջանի հայ համայնքի կարևոր հոգևոր կենտրոնն է։",
        "photoName": "nyugdi_grigoris"
      },
      {
        "name": "Սուրբ Սարգիս եկեղեցի",
        "lat": 56.0184,
        "lon": 92.8672,
        "isActive": true,
        "address": "Կրասնոյարսկ, Ռուսաստան",
        "description": "Սուրբ Սարգիս եկեղեցին Կրասնոյարսկում առաջին հայկական եկեղեցին է Ուրալից այն կողմ։ Կառուցվել է 1990-ականների վերջին, освящվել է 2003 թ․։",
        "photoName": "krasnoyarsk_sarkis"
      },
      {
        "name": "Սուրբ Աստվածածին եկեղեցի",
        "lat": 55.0302,
        "lon": 82.9204,
        "isActive": true,
        "address": "Նովոսիբիրսկ, Ռուսաստան",
        "description": "Սուրբ Աստվածածին եկեղեցին Նովոսիբիրսկում գործող հայ առաքելական եկեղեցի է և համայնքի մշակութային կենտրոն։",
        "photoName": "novosibirsk_astvatsatsin"
      },
      {
        "name": "Ամենափրկիչ Քրիստոսի եկեղեցի",
        "lat": 58.6036,
        "lon": 49.6680,
        "isActive": true,
        "address": "Կիրով, Ռուսաստան",
        "description": "Ամենափրկիչ Քրիստոսի եկեղեցին Կիրովում գործող հայ առաքելական եկեղեցի է, միավորող տարածաշրջանի հայերին։",
        "photoName": "kirov_christ_savior"
      },
        {
          "name": "Սուրբ Աստվածածին եկեղեցի",
          "lat": 51.5331,
          "lon": 46.0342,
          "isActive": true,
          "address": "Սարատով, Ռուսաստան",
          "description": "Սուրբ Աստվածածին եկեղեցին Սարատովում հայ առաքելական եկեղեցի է, գործող տաճար և հայ համայնքի հոգևոր կենտրոն Վոլգայում։",
          "photoName": "saratov_astvatsatsin"
        },
        {
          "name": "Սուրբ Գրիգոր Լուսավորիչ եկեղեցի",
          "lat": 54.3180,
          "lon": 48.3978,
          "isActive": true,
          "address": "Ուլյանովսկ, Ռուսաստան",
          "description": "Սուրբ Գրիգոր Լուսավորիչ եկեղեցին Ուլյանովսկում освящվել է 2023 թ․։ Ժամանակակից հայ առաքելական եկեղեցի, կառուցված համայնքի միջոցներով։",
          "photoName": "ulyanovsk_grigor"
        },
        {
          "name": "Սուրբ Ստեփանոս եկեղեցի",
          "lat": 54.7104,
          "lon": 20.4522,
          "isActive": true,
          "address": "Կալինինգրադ, Ռուսաստան",
          "description": "Սուրբ Ստեփանոս եկեղեցին Կալինինգրադում հայ առաքելական գործող եկեղեցի է և համայնքի հոգևոր կենտրոն։",
          "photoName": "kaliningrad_stepanos"
        },
        {
          "name": "Սուրբ Հարություն եկեղեցի",
          "lat": 55.7636,
          "lon": 37.5595,
          "isActive": true,
          "address": "Մոսկվա, Սերգեյ Մակեևի փ․ 10",
          "description": "Սուրբ Հարություն եկեղեցին Մոսկվայում հիմնադրվել է 1815 թ․ Լազարյան եղբայրների կողմից։ Հետագայում փակվել էր, սակայն 1956-ին վերադարձվել է համայնքին։ Այսօր այն գործում է և կարևոր պատմամշակութային կենտրոն է։",
          "photoName": "moscow_surbarutyun_old"
        },
        {
          "name": "Սուրբ Հարություն եկեղեցի",
          "lat": 56.8583,
          "lon": 35.9044,
          "isActive": true,
          "address": "Տվեր, Ռուսաստան",
          "description": "Տվերի Սուրբ Հարություն եկեղեցին գործող հայ առաքելական եկեղեցի է և համայնքի կենտրոն։",
          "photoName": "tver_surbarutyun"
        },
        {
          "name": "Սուրբ Գևորգ եկեղեցի",
          "lat": 57.6373,
          "lon": 39.8161,
          "isActive": true,
          "address": "Յարոսլավլ, Ռուսաստան",
          "description": "Սուրբ Գևորգ եկեղեցին Յարոսլավլում առաջին հայկական եկեղեցին է մարզում, освящվել է 2017 թ․։",
          "photoName": "yaroslavl_gevorg"
        },
        {
          "name": "Սուրբ Սարգս եկեղեցի",
          "lat": 51.6744,
          "lon": 39.1763,
          "isActive": true,
          "address": "Վորոնեժ, Ռուսաստան",
          "description": "Վորոնեժի Սուրբ Սարգս եկեղեցին գործող հայկական տաճար է՝ կառուցված տուֆով, զարդարված խաչքարերով։ Ճարտարապետ՝ Գևորգ Շիրվանյան։",
          "photoName": "voronezh_surb_sargis"
        },
        {
          "name": "Սուրբ Ամենափրկիչ եկեղեցի",
          "lat": 56.3153,
          "lon": 43.9786,
          "isActive": true,
          "address": "Նիժնի Նովգորոդ, Ռուսաստան",
          "description": "Նիժնի Նովգորոդի Սուրբ Ամենափրկիչ եկեղեցին կառուցվել է 2008–2014 թթ․, освящվել է 2014 թ․ մայիսի 25-ին։ Կառուցված է հայկական տուֆից, համալրված խաչքարերով և մշակութային կենտրոնով։",
          "photoName": "nn_surb_amenaprkich"
        },
        {
          "name": "Սուրբ Ռիպսիմե եկեղեցի",
          "lat": 53.3320,
          "lon": 83.6667,
          "isActive": true,
          "address": "Բառնաուլ, Ռուսաստան",
          "description": "Բառնաուլի Սուրբ Ռիպսիմե եկեղեցին կառուցվել է 2001–2008 թթ․, освящվել է Կաթողիկոս Գարեգին Բ-ի կողմից։ Կարմիր աղյուսով հայկական ոճի տաճար է, հարևանությամբ խաչքար։",
          "photoName": "barnaul_surb_ripsime"
        },
        {
          "name": "Սուրբ Գրիգոր Լուսավորիչ եկեղեցի",
          "lat": 53.6681,
          "lon": 87.1583,
          "isActive": true,
          "address": "Սոսնովկա, Կեմերովո մարզ, Ռուսաստան",
          "description": "Սոսնովկայի Սուրբ Գրիգոր Լուսավորիչ եկեղեցին գրանցվել է 2008 թ․ մայիսին։ Освящվել է նույն տարվա օգոստոսի 24-ին։ Բացմանը մասնակցել է ավելի քան 400 հայ, ինչպես նաև այլ կրոնական համայնքների ներկայացուցիչներ։",
          "photoName": "sosnovka_surb_grigor"
        },
        {
          "name": "Սուրբ Գրիգոր Լուսավորիչ եկեղեցի",
          "lat": 43.0187,
          "lon": 44.6802,
          "isActive": true,
          "address": "Վլադիկավկազ, Ռուսաստան",
          "description": "Վլադիկավկազի Սուրբ Գրիգոր Լուսավորիչ եկեղեցին կառուցվել է 1868 թ․։ Կառույցը պատմամշակութային ժառանգություն է, բակում տեղադրված է խաչքար՝ նվիրված Հայոց Ցեղասպանության զոհերի հիշատակին։",
          "photoName": "vladikavkaz_surb_grigor"
        },
        {
          "name": "Սուրբ Ամենափրկիչ եկեղեցի",
          "lat": 42.05694,
          "lon": 48.28694,
          "isActive": true,
          "address": "Դերբենտ, Ռուսաստան",
          "description": "Դերբենտի Սուրբ Ամենափրկիչ եկեղեցին կառուցվել է 1870–1871 թթ․, 1888-ին ավելացվել է զանգակատուն։ 1975-ին ճանաչվել է ճարտարապետական հուշարձան, 2009-ից կրկին կատարվում են պատարագներ։",
          "photoName": "derbent_surb_amenaprkich"
        },
        {
          "name": "Սուրբ Խաչ վանք",
          "lat": 45.0007,
          "lon": 35.0625,
          "isActive": true,
          "address": "Հին Ղրիմ, Կիրովի շրջան, Ղրիմ",
          "description": "Սուրբ Խաչ վանքը հիմնադրվել է 1358 թ․։ Կոմպլեքսը ներառում է Սուրբ Նշան եկեղեցի, գավիթ, ճաշարան, վանական խցեր և խաչքարեր։ Վանքը փակվել էր 1925-ին, վերականգնվել 1980-ականներին, ծառայությունները վերականգնվել են 1994-ին։",
          "photoName": "surp_hach_crimea"
        },
          {
            "name": "Սուրբ Գրիգոր Լուսավորիչ եկեղեցի",
            "lat": 48.4647,
            "lon": 35.0462,
            "isActive": true,
            "address": "Դնեպր, Ուկրաինա",
            "description": "Եկեղեցին կառուցվել է Դնեպրի հայ համայնքի նախաձեռնությամբ․ հիմքը դրվել է 2003-ին, իսկ ակտիվ շինարարությունը սկսվել է 2010-ին՝ Հայաստանում արտադրած դեղնավուն տուֆից։ Խաչերն ու գմբեթները օծվել են 2017-ին, իսկ ամբողջական օծումը կատարվել է 2018 թ. մարտի 17-ին՝ Ամենայն հայոց կաթողիկոս Գարեգին Բ-ի կողմից։ Եկեղեցուն կից գործում է կիրակնօրյա դպրոց, և այն համարվում է Արևելյան Եվրոպայի ամենամեծ հայկական եկեղեցին՝ կարևոր հոգևոր և մշակութային կենտրոն։",
            "photoName": "dnipro_surb_grigor"
          },
          {
            "name": "Լվովի Սուրբ Աստվածածնի Վերափոխման մայր տաճար",
            "lat": 49.8397,
            "lon": 24.0297,
            "isActive": true,
            "address": "Լվով, Ուկրաինա",
            "description": "Լվովի Սուրբ Աստվածածնի Վերափոխման մայր տաճարը քաղաքի ամենահին հուշարձաններից է։ Կառուցվել է 1363–1370 թթ․ ճարտարապետ Դորինգի նախագծով։ Ճարտարապետությունը համադրում է հայկական, ռոմանական-գոթական և գալիցիական տարրեր և ընդգրկված է ՅՈՒՆԵՍԿՕ-ի համաշխարհային ժառանգության ցանկում։ Համալիրը ներառում է զանգակատուն (1571), արքեպիսկոպոսի պալատ, հայկական բանկի շենք, բենեդիկտուհիների վանք, Սուրբ Քրիստոֆորի սյուն (1726) և հարավային արքադա (1437)։ Ներսում պահպանվել են Յան Հենրիկ Ռոզենի ֆրեսկները՝ հայկական մոտիվներով։",
            "photoName": "lviv_armenian_cathedral"
          },
          {
            "name": "Սուրբ Հարություն եկեղեցի",
            "lat": 50.0028,
            "lon": 36.2727,
            "isActive": true,
            "address": "Խարկով, Ուկրաինա",
            "description": "Խարկովի «Սուրբ Հարություն» եկեղեցու հիմքը դրվել է 2000 թ․ հուլիսի 1-ին, իսկ օծումը կատարվել է 2004 թ․ օգոստոսի 24-ին՝ Ամենայն հայոց կաթողիկոս Գարեգին Բ-ի կողմից։ Նախագծի հեղինակն է Խարկովի գլխավոր ճարտարապետ Պավել Չեչելնիցկին։ Եկեղեցին կառուցվել է հայկական քարից, իսկ ներսի հարդարանքն իրականացվել է հայկական ավանդական ոճով։",
            "photoName": "kharkov_surb_arutyun"
          },
          {
            "name": "Սուրբ Պետրոս և Պողոս առաքյալների եկեղեցի",
            "lat": 48.2889,
            "lon": 25.9392,
            "isActive": true,
            "address": "Չերնովցի, Ուկրաինա",
            "description": "Հայ կաթողիկե եկեղեցի՝ կառուցված ճարտարապետ Յոզեֆ Հլավկայի նախագծով։ Շինարարությունը տևել է 1869–1875 թթ․ և օծվել է 1875 թ․ հոկտեմբերի 9-ին։ Ճարտարապետությունն ընդգրկում է ռոմանական, գոթական և ուկրաինական բարոկկո տարրեր։ Գերազանց ակուստիկայի և օրգանի շնորհիվ 1986-ից ծառայել է որպես Չերնովցու ֆիլհարմոնիայի օրգանական դահլիճ։ Խորհրդային շրջանում փակվել էր, հետագայում վերականգնվեց և վերադարձվեց հավատացյալներին։",
            "photoName": "chernivtsi_peter_paul"
          },
          {
            "name": "Սուրբ Աստվածածնի Ավետման եկեղեցի",
            "lat": 48.9228,
            "lon": 24.7094,
            "isActive": true,
            "address": "Իվանո-Ֆրանկովսկ, Ուկրաինա",
            "description": "Սուրբ Աստվածածնի Ավետման եկեղեցին կառուցվել է XVII դարի կեսերին հայ վաճառականների ու արհեստավորների կողմից և դարձել է տարածաշրջանի հայ համայնքի հոգևոր կենտրոն։ Եկեղեցին ունի բարոկկո և ռենեսանսային տարրեր, ներսում պահպանվել են XVII–XVIII դդ․ որմնանկարներ և սրբապատկերներ։ Եկեղեցին վերանորոգվել է XIX դարում, սակայն Երկրորդ համաշխարհայինի և խորհրդային տարիներին կրել է մեծ վնասներ։ 1990-ականներից այստեղ կրկին իրականացվում են ծիսական ծառայություններ, իսկ 2000-ականներին՝ նաև մշակութային նախաձեռնություններ։ Այսօր այն հայկական համայնքի կարևորագույն հոգևոր ու մշակութային կենտրոնն է։",
            "photoName": "ivano_frankivsk_annunciation"
          },
          {
            "name": "Օդեսայի հայկական առաքելական եկեղեցի",
            "lat": 46.4277,
            "lon": 30.7547,
            "isActive": true,
            "address": "Օդեսա, Ուկրաինա",
            "description": "Օդեսայի հայկական առաքելական եկեղեցին գտնվում է Гагարինյան Պլատոյի շրջանում։ Այն հանդիսանում է քաղաքի հայ համայնքի հոգևոր կենտրոնը։ Այստեղ անցկացվում են պատարագներ, մկրտություններ և պսակադրություններ։ Ժամանակակից շենքը կառուցված է հայկական ճարտարապետական ոճով և ներդաշնակորեն համադրված է Սև ծովի ափամերձ լանդշաֆտի հետ։",
            "photoName": "odessa_surbarutyun"
          },
          {
            "name": "Սուրբ Գրիգոր Լուսավորիչ եկեղեցի",
            "lat": 53.9090,
            "lon": 27.5670,
            "isActive": true,
            "address": "Մինսկ, Բելառուս",
            "description": "Բելառուսի առաջին հայկական եկեղեցական համալիրը՝ Սուրբ Գրիգոր Լուսավորիչ եկեղեցին, օծվել է 2025 թ․ մայիսի 18-ին Ամենայն հայոց կաթողիկոս Գարեգին Բ-ի կողմից։ Շինարարությունը տևել է 2022 թ․ օգոստոսից մինչև 2025 թ․ ապրիլ՝ ճարտարապետ Սամվել Մակյանի նախագծով։ Կառուցման համար օգտագործվել են հայկական վուլկանական տուֆ և տրավերտին։ Եկեղեցին դարձել է Բելառուսի հայ համայնքի հոգևոր և մշակութային կենտրոն։",
            "photoName": "minsk_surb_grigor"
          },
            {
              "name": "Սուրբ Գրիգոր Լուսավորիչ եկեղեցի (Տալլին)",
              "lat": 59.43376,
              "lon": 24.76174,
              "isActive": true,
              "address": "Տալլին, Տարտուի խճուղի 16ա, Էստոնիա",
              "description": "Սուրբ Գրիգոր Լուսավորիչ եկեղեցին՝ հայկական առաքելական եկեղեցի Տալլինում։ Շենքը նախկինում լյութերական եկեղեցի էր (Սուրբ Յոհաննես), որի պատմությունը հասնում է մինչև XIII դար։ Հայ համայնքը եկեղեցին ստացավ 1993-ին և վերականգնեց մինչև 2000-ականների սկիզբը։ Վերաօծումը և խաչքարերի տեղադրումը կատարվեց հայ եպիսկոպոսների մասնակցությամբ։\n\nԱյսօր այն գործող եկեղեցի է և Էստոնիայի հայ համայնքի կենտրոն։ Եկեղեցին ընդգրկված է որպես մշակութային ժառանգություն և համադրում է հայկական ճարտարապետական ավանդույթները քաղաքի պատմական միջավայրի հետ։",
              "photoName": "tallinn_surb_grigor"
            },
            {
              "name": "Սուրբ Գրիգոր Լուսավորիչ եկեղեցի (Ռիգա)",
              "lat": 56.9496,
              "lon": 24.1083,
              "isActive": true,
              "address": "Ռիգա, Լատվիա",
              "description": "Սուրբ Գրիգոր Լուսավորիչ եկեղեցին Ռիգայում՝ առաջին հայկական եկեղեցին Բալթյան երկրներում և Սկանդինավիայում։ Հիմնադրվել է հայ համայնքի միջոցներով․ հիմքը դրվել է 1997թ․ դեկտեմբերի 17-ին։ Կառուցվել է Հակոբ Բաբախանյանի նախագծով և պատված է իրանական տրավերտինով։ Վերաօծվել է 2011թ․ հունիսի 30-ին Ամենայն Հայոց Կաթողիկոս Գարեգին Բ-ի ձեռամբ։ Եկեղեցու բակում տեղադրված է խաչքար, գործում է կիրակնօրյա դպրոց։ Տեր-Խոսրով Ստեփանյանը ծառայում է որպես հոգևոր հովիվ 2005-ից։ Եկեղեցին տեղավորում է մոտ 100 հավատացյալ։",
              "photoName": "riga_surb_grigor"
            },
            {
              "name": "Սուրբ Վարդան եկեղեցի",
              "lat": 54.6916,
              "lon": 25.2858,
              "isActive": true,
              "address": "Վիլնյուս, Լիտվա",
              "description": "Սուրբ Վարդան եկեղեցին հայկական առաքելական եկեղեցի է Վիլնյուսում։ Հայ համայնքը «Սուրբ Վարդան» համայնքը հիմնել է 1994թ․, իսկ եկեղեցին բացվել է 2006-ին։ Տեղակայված է Ա․ Յուզապավիչյուս փողոց 11Ա հասցեում։ Եկեղեցին ծառայում է որպես հայ համայնքի հոգևոր և մշակութային կենտրոն։",
              "photoName": "vilnius_surb_vardan"
            },
            {
              "name": "Սուրբ Գևորգ եկեղեցի",
              "lat": 43.1144,
              "lon": 131.8855,
              "isActive": true,
              "address": "Վլադիվոստոկ, Ռուսաստան",
              "description": "Սուրբ Գևորգ եկեղեցին Վլադիվոստոկում հանդիսանում է Հայ Առաքելական եկեղեցու և համայնքի գլխավոր կենտրոններից։ Հայերը Պրիմորիեում հայտնվել են XIX դարի վերջում։ 1906-ին քաղաքային խորհուրդը հող հատկացրեց եկեղեցու և համայնքային տան համար։ 1915-ին արդեն գործում էր աղոթատուն։ Խորհրդային շրջանում՝ մինչև 1942 թվականը, ծիսակարգերը շարունակվել են։\n\nԵրկրորդ համաշխարհայինից հետո շենքը ավերվեց։ 1990-ականներին մնացել էին միայն ավերակներ։ Հայ համայնքը պահեց ավերակները և 2000-ականներին սկսվեց նոր եկեղեցու շինարարությունը։ Հին պատը պահվեց որպես հուշարձան։\n\nՆոր Սուրբ Գևորգ եկեղեցին կառուցվեց կարմիր աղյուսից և օծվեց 2007-ին։ Այսօր այն Վլադիվոստոկի և ամբողջ Հեռավոր Արևելքի հայերի մշակութային և հոգևոր խորհրդանիշն է։",
              "photoName": "vladivostok_surb_gevorg"
            },
            {
              "name": "Սուրբ Աստվածածին եկեղեցի",
              "lat": 47.0100,
              "lon": 28.8636,
              "isActive": true,
              "address": "Քիշնև, Մոլդովա",
              "description": "Սուրբ Աստվածածին եկեղեցին Քիշնևում հայկական առաքելական եկեղեցի է և Բեսարաբիայի ամենահին եկեղեցիներից։ Կառուցվել է 1803-1804 թթ․ տեղում, որտեղ նախկինում կար մոլդովական եկեղեցի։ Ճարտարապետական ոճը ներառում է երկհարկանի զանգակատուն և գեղեցիկ երեքաղեղ պորտիկ։ Խորհրդային տարիներին այն օգտագործվել է որպես պահեստ։ 1992-ին եկեղեցին վերադարձվեց հայ համայնքին, և 1993թ․ հունիսի 19-ին վերականգնվեցին պատարագները։",
              "photoName": "chisinau_surb_astvatsatsin"
            },
            {
              "name": "Սուրբ Կարապետ եկեղեցի",
              "lat": 43.32972,
              "lon": 76.95059,
              "isActive": true,
              "address": "Ալմաթի, Ղազախստան",
              "description": "Սուրբ Կարապետ եկեղեցին Ալմաթիում՝ առաջին հայկական եկեղեցին Ղազախստանում։ Բացվել է 2006թ․ հոկտեմբերի 7-ին՝ «Նաիրի» հայկական մշակութային կենտրոնների ասոցիացիայի աջակցությամբ։ Վերաօծվել է եպիսկոպոս Եզրաս Ներսիսյանի կողմից։ Եկեղեցու մոտ գործում են կիրակնօրյա դպրոց և մշակութային խմբակներ։",
              "photoName": "almaty_surb_karapet"
            },
            {
              "name": "Սուրբ Փիլիպոս եկեղեցի",
              "lat": 41.3092,
              "lon": 69.3424,
              "isActive": true,
              "address": "Տաշքենդ, Ուզբեկստան",
              "description": "Սուրբ Փիլիպոս եկեղեցին Տաշքենդում հիմնադրվել է հայ համայնքի կողմից 1993-ին։ Խորհրդային շրջանում փակված եկեղեցին վերադարձվեց հավատացյալներին Ուզբեկստանի անկախությունից հետո։ Վերաօծումն ու առաջին պատարագը կատարվեցին 1995-ին։ Եկեղեցին պաշտոնապես գրանցվեց 2007թ․ հունվարի 12-ին՝ իերեյ Գևորգ Վարդանյանի օրոք։ Ներկայումս հոգևոր հովիվն է Տ․ Գառնիկ Լորեցյանը։",
              "photoName": "tashkent_surb_philip"
            },
            {
              "name": "Սուրբ Աստվածածին եկեղեցի",
              "lat": 39.6545,
              "lon": 66.9740,
              "isActive": true,
              "address": "Սամարղանդ, Ուզբեկստան",
              "description": "Սուրբ Աստվածածին եկեղեցին Սամարղանդում կառուցվել է 1903թ․։ Առաջին քահանա՝ Տ․ Ռուբեն Բեկգուլյան։ Խորհրդային շրջանում այն փակվեց 1939-ին։ Անկախությունից հետո վերականգնվեց և օծվեց 1995-ին՝ արքեպիսկոպոս Ներսես Պոզապոլյանի մասնակցությամբ։ Այսօր այն շարունակում է ծառայել որպես համայնքի հոգևոր և մշակութային կենտրոն։",
              "photoName": "samarkand_surb_astvatsatsin"
            },
            {
              "name": "Սուրբ Կարապետ եկեղեցի",
              "lat": 62.0355,
              "lon": 129.6755,
              "isActive": true,
              "address": "Յակուտսկ, Ռուսաստան",
              "description": "Սուրբ Կարապետ եկեղեցին Յակուտսկում՝ աշխարհի ամենահյուսիսային հայկական եկեղեցին։ Հիմքը դրվել է 2011-ին, օծվել՝ 2012-ին։ Բարձրությունը՝ 27 մետր։ Կառուցման նյութերը բերվել են Հայաստանից։ Շենքի արտաքին մասը պատված է տուֆով։\n\nՀայ համայնքը Յակուտիայում ձևավորվել է XIX դարի վերջին։ Այսօր եկեղեցին համախմբում է հայերին և ծառայում է որպես հոգևոր ու մշակութային կենտրոն։",
              "photoName": "yakutsk_surb_karapet"
            }
        
]
